[{"Name":"Rajarajeswari Medicalcollege And Hospital","Phone Number":"918028437888","City":"Bangalore","Location":"Mysore Road"},{"Name":"Nu Hospitals Pvt Ltd","Phone Number":"918042489966","City":"Bangalore","Location":"PadmanabhaNagar"},{"Name":"Leena Multispeciality Hospital","Phone Number":"(953) 500-0622","City":"Bangalore","Location":"Devanahalli Town"},{"Name":"Tathagat Heart Care Centre Llp","Phone Number":"918022357777","City":"Bangalore","Location":"Crescent Road"},{"Name":"Aster Cmi","Phone Number":"918043420100","City":"Bangalore","Location":"SahakaraNagar"},{"Name":"Bhagvan Mahaveer Jain Hospital","Phone Number":"918040875555","City":"Bangalore","Location":"VasanthNagar"},{"Name":"M.S. Ramaiah Medical College","Phone Number":"918023608888","City":"Bangalore","Location":"MSR Nagar"},{"Name":"Mvj Medical College","Phone Number":"918028060251","City":"Bangalore","Location":"Hoskote"},{"Name":"SI Vega Hospital Private Limited Regal Hospital","Phone Number":"(990) 201-1037","City":"Bangalore","Location":"HegdeNagar"},{"Name":"B W Lions Superspeciality Eye Hospital","Phone Number":"918022121253","City":"Bangalore","Location":"JC Road"},{"Name":"Rainbow Childrens Medicare Private Limited","Phone Number":"(888) 443-6033","City":"Bangalore","Location":"Marathhalli"},{"Name":"Specialist Health System Pvt Limited","Phone Number":"918042522322","City":"Bangalore","Location":"KalyanNagar"},{"Name":"K.C.General Hospital","Phone Number":"918023344022","City":"Bangalore","Location":"Malleshwaram"},{"Name":"Indira Gandhi institute of Child Health","Phone Number":"918022443143","City":"Bangalore","Location":"Jayanagar"},{"Name":"Healthcare Global Enterprises Ltd","Phone Number":"918040206000","City":"Bangalore","Location":"Double Road"}]